{
"type": "FeatureCollection",
"name": "hotels",
"crs": { "type": "name", "properties": { "name": "urn:ogc:def:crs:OGC:1.3:CRS84" } },
"features": [
{ "type": "Feature", "properties": { "fid": 1, "No": 1.0, "Name": "Arilla Eclat", "ALAMAT": "Jl.Kaliurang Km. 9,3 No. 2, Sinduharjo, Ngaglik, Sleman (0274) 4331491", "GM_PEMILIK": "Yolla Elwyn", "KAMAR": 18.0, "KLASIFI": "I", "TN_KERJA": 18.0, "Sumber": "Dinas Pariwisata Kabupaten Sleman Tahun 2020", "X": 110.398894453, "Y": -7.7278468305299999 }, "geometry": { "type": "Point", "coordinates": [ 110.398894453, -7.72784683053 ] } },
{ "type": "Feature", "properties": { "fid": 2, "No": 2.0, "Name": "Artotel Yogyakarta", "ALAMAT": "Jl. Kaliurang KM 5,6 No 14 Caturtunggal, Sleman, Yogyakarta (0274)6000333", "GM_PEMILIK": "-", "KAMAR": 75.0, "KLASIFI": "IV", "TN_KERJA": 49.0, "Sumber": "Dinas Pariwisata Kabupaten Sleman Tahun 2020", "X": 110.3822283, "Y": -7.75667199981 }, "geometry": { "type": "Point", "coordinates": [ 110.3822283, -7.75667199981 ] } },
{ "type": "Feature", "properties": { "fid": 3, "No": 3.0, "Name": "Atrium Premiere Hotel Jogja", "ALAMAT": "Jl. Laksda Adisucipto No. 157 A Papringan CT Depok Sleman (0274) 555181", "GM_PEMILIK": "Yuda Wijaya", "KAMAR": 105.0, "KLASIFI": "III", "TN_KERJA": 48.0, "Sumber": "Dinas Pariwisata Kabupaten Sleman Tahun 2020", "X": 110.392899, "Y": -7.7828337997399997 }, "geometry": { "type": "Point", "coordinates": [ 110.392899, -7.78283379974 ] } },
{ "type": "Feature", "properties": { "fid": 4, "No": 4.0, "Name": "Aveon Hotel Yogyakarta by Daphna International", "ALAMAT": "Jl. Padjajaran Jl. Ring Road Utara No.160, Krodan, Maguwoharjo, Kec. Depok, Kab. Sleman, Daerah Istimewa Yogyakarta 55282 (0274)2836333", "GM_PEMILIK": "-", "KAMAR": 95.0, "KLASIFI": "IV", "TN_KERJA": 35.0, "Sumber": "Dinas Pariwisata Kabupaten Sleman Tahun 2020", "X": 110.422919, "Y": -7.7639260996099999 }, "geometry": { "type": "Point", "coordinates": [ 110.422919, -7.76392609961 ] } },
{ "type": "Feature", "properties": { "fid": 5, "No": 5.0, "Name": "Bandara asri", "ALAMAT": "Jl Adisucipto km 9 Maguwoharjo, Depok, Sleman 085702051113", "GM_PEMILIK": "Johan Arifin", "KAMAR": 25.0, "KLASIFI": "I", "TN_KERJA": 15.0, "Sumber": "Dinas Pariwisata Kabupaten Sleman Tahun 2020", "X": 110.4375215, "Y": -7.78251340007 }, "geometry": { "type": "Point", "coordinates": [ 110.4375215, -7.78251340007 ] } },
{ "type": "Feature", "properties": { "fid": 6, "No": 6.0, "Name": "Brothers Inn Babarsari", "ALAMAT": "Jalan Babarsari No. 47 CT. XIX Kledokan RT.05 RW.02, Caturtunggal, Depok, Sleman (0274) 2802555", "GM_PEMILIK": "Fransisco Budi Handoko", "KAMAR": 47.0, "KLASIFI": "IV", "TN_KERJA": 24.0, "Sumber": "Dinas Pariwisata Kabupaten Sleman Tahun 2020", "X": 110.4136409, "Y": -7.7744634002700002 }, "geometry": { "type": "Point", "coordinates": [ 110.4136409, -7.77446340027 ] } },
{ "type": "Feature", "properties": { "fid": 7, "No": 7.0, "Name": "Bueno Colombo Hotel Yogyakarta", "ALAMAT": "Jl. Solo Km 11 Tamanmartani  Kalasan Sleman (0274) 4469000", "GM_PEMILIK": "Ir.Endang Retno S", "KAMAR": 69.0, "KLASIFI": "III", "TN_KERJA": 35.0, "Sumber": "Dinas Pariwisata Kabupaten Sleman Tahun 2020", "X": 110.4703292, "Y": -7.7683036000300003 }, "geometry": { "type": "Point", "coordinates": [ 110.4703292, -7.76830360003 ] } },
{ "type": "Feature", "properties": { "fid": 8, "No": 8.0, "Name": "Cakra Kembang", "ALAMAT": "Jl. Kaliurang Km. 5 , Caturtunggal, Depok Sleman          Telp. (0274) 563088", "GM_PEMILIK": "Hj Sugiyanti Dm", "KAMAR": 35.0, "KLASIFI": "I", "TN_KERJA": 25.0, "Sumber": "Dinas Pariwisata Kabupaten Sleman Tahun 2020", "X": 110.3821894, "Y": -7.75865560028 }, "geometry": { "type": "Point", "coordinates": [ 110.3821894, -7.75865560028 ] } },
{ "type": "Feature", "properties": { "fid": 9, "No": 9.0, "Name": "Cakra Kusuma Hotel Yogyakarta", "ALAMAT": "Jl. Kaliurang KM.5,2 No.25 Kacotan Caturtunggal, Depok, Sleman (0274) 588066", "GM_PEMILIK": "Hj. Sukiyanti Darmadi", "KAMAR": 35.0, "KLASIFI": "III", "TN_KERJA": 65.0, "Sumber": "Dinas Pariwisata Kabupaten Sleman Tahun 2020", "X": 110.3803705, "Y": -7.7598831002199997 }, "geometry": { "type": "Point", "coordinates": [ 110.3803705, -7.75988310022 ] } },
{ "type": "Feature", "properties": { "fid": 10, "No": 10.0, "Name": "Core Hotel Malioboro City", "ALAMAT": "JL. Laksda Adisucipto", "GM_PEMILIK": "-", "KAMAR": 59.0, "KLASIFI": "IV", "TN_KERJA": 22.0, "Sumber": "Dinas Pariwisata Kabupaten Sleman Tahun 2020", "X": 110.4187795, "Y": -7.7809625003200003 }, "geometry": { "type": "Point", "coordinates": [ 110.4187795, -7.78096250032 ] } },
{ "type": "Feature", "properties": { "fid": 11, "No": 11.0, "Name": "Crystal Lotus Hotel Yogyakarta", "ALAMAT": "Jl. Magelang Km 5 Sinduadi Mlati Sleman Yogyakarta (0274) 6429799", "GM_PEMILIK": "-", "KAMAR": 110.0, "KLASIFI": "III", "TN_KERJA": 75.0, "Sumber": "Dinas Pariwisata Kabupaten Sleman Tahun 2020", "X": 110.3624905, "Y": -7.7594100001699999 }, "geometry": { "type": "Point", "coordinates": [ 110.3624905, -7.75941000017 ] } },
{ "type": "Feature", "properties": { "fid": 12, "No": 12.0, "Name": "D'Salvatore Art & Boutique Hotel", "ALAMAT": "Jl. Laksda Adisucipto Km. 8 Telp. (0274) 489526, Fax. 488334", "GM_PEMILIK": "Helfi", "KAMAR": 11.0, "KLASIFI": "IV", "TN_KERJA": 19.0, "Sumber": "Dinas Pariwisata Kabupaten Sleman Tahun 2020", "X": 110.42566867399999, "Y": -7.7835993196900004 }, "geometry": { "type": "Point", "coordinates": [ 110.425668674, -7.78359931969 ] } },
{ "type": "Feature", "properties": { "fid": 13, "No": 13.0, "Name": "Eastparc Hotel Yogyakarta", "ALAMAT": "Jl. Raya Seturan, Depok", "GM_PEMILIK": "Muhammad Anwar", "KAMAR": 193.0, "KLASIFI": "V", "TN_KERJA": 169.0, "Sumber": "Dinas Pariwisata Kabupaten Sleman Tahun 2020", "X": 110.4087306, "Y": -7.7815235999299999 }, "geometry": { "type": "Point", "coordinates": [ 110.4087306, -7.78152359993 ] } },
{ "type": "Feature", "properties": { "fid": 14, "No": 14.0, "Name": "Front One Resort Jogja", "ALAMAT": "Jl. Ringroad Utara Mancasan, Condongcatur,  Depok, Sleman (0274) 4477488", "GM_PEMILIK": "Prof. Dr. H. Musa As'arie", "KAMAR": 105.0, "KLASIFI": "III", "TN_KERJA": 46.0, "Sumber": "Dinas Pariwisata Kabupaten Sleman Tahun 2020", "X": 110.4160753, "Y": -7.7624247003400004 }, "geometry": { "type": "Point", "coordinates": [ 110.4160753, -7.76242470034 ] } },
{ "type": "Feature", "properties": { "fid": 15, "No": 15.0, "Name": "Gadjah Mada University Club (UC UGM)", "ALAMAT": "Jl. Pancasila No 2 Bulak Sumur", "GM_PEMILIK": "-", "KAMAR": 71.0, "KLASIFI": "III", "TN_KERJA": 60.0, "Sumber": "Dinas Pariwisata Kabupaten Sleman Tahun 2020", "X": 110.3774314, "Y": -7.7731748003799996 }, "geometry": { "type": "Point", "coordinates": [ 110.3774314, -7.77317480038 ] } },
{ "type": "Feature", "properties": { "fid": 16, "No": 16.0, "Name": "Grand Ambarrukmo Yogyakarta", "ALAMAT": "Jl. Laksa Adjisucipto No. 108 Catur Tunggal, Kec. Depok Kab. Sleman", "GM_PEMILIK": "Tjia Eddy Susanto", "KAMAR": 142.0, "KLASIFI": "IV", "TN_KERJA": 88.0, "Sumber": "Dinas Pariwisata Kabupaten Sleman Tahun 2020", "X": 110.4005058, "Y": -7.7836188997900004 }, "geometry": { "type": "Point", "coordinates": [ 110.4005058, -7.78361889979 ] } },
{ "type": "Feature", "properties": { "fid": 17, "No": 17.0, "Name": "Grand Keisha Yogyakarta", "ALAMAT": "Jl. Affandi No. 9 Gejayan Sleman Kec. Depok, Kab. Sleman", "GM_PEMILIK": "M. Andi Arsalna Djunaed", "KAMAR": 177.0, "KLASIFI": "IV", "TN_KERJA": 74.0, "Sumber": "Dinas Pariwisata Kabupaten Sleman Tahun 2020", "X": 110.3959272, "Y": -7.7593623999499997 }, "geometry": { "type": "Point", "coordinates": [ 110.3959272, -7.75936239995 ] } },
{ "type": "Feature", "properties": { "fid": 18, "No": 18.0, "Name": "Grand Mercure Yogyakarta Adi Sucipto", "ALAMAT": "Jl. Laksda Adisucipto  No. 80, Caturtunggal Kec. Depok, Kabupaten Sleman 55281", "GM_PEMILIK": "Hartono Sundoro Hosea", "KAMAR": 156.0, "KLASIFI": "V", "TN_KERJA": 155.0, "Sumber": "Dinas Pariwisata Kabupaten Sleman Tahun 2020", "X": 110.3923981, "Y": -7.7837158997699998 }, "geometry": { "type": "Point", "coordinates": [ 110.3923981, -7.78371589977 ] } },
{ "type": "Feature", "properties": { "fid": 19, "No": 19.0, "Name": "Grand Orchid Hotel Yogyakarta", "ALAMAT": "Jl. Onggomertan, Maguwoharjo km. 8 Kec. Depok, Kab. Sleman telp 02742800333/2801546", "GM_PEMILIK": "-", "KAMAR": 178.0, "KLASIFI": "III", "TN_KERJA": 31.0, "Sumber": "Dinas Pariwisata Kabupaten Sleman Tahun 2020", "X": 110.4243233, "Y": -7.7825338002900004 }, "geometry": { "type": "Point", "coordinates": [ 110.4243233, -7.78253380029 ] } },
{ "type": "Feature", "properties": { "fid": 20, "No": 20.0, "Name": "Grand Sarila", "ALAMAT": "Jl. Affandi No. 3 Gejayan Kec. Depok, Kab. Sleman 0274-5306365", "GM_PEMILIK": "Suparjo Rustam", "KAMAR": 100.0, "KLASIFI": "III", "TN_KERJA": 25.0, "Sumber": "Dinas Pariwisata Kabupaten Sleman Tahun 2020", "X": 110.3959946, "Y": -7.7589595999099998 }, "geometry": { "type": "Point", "coordinates": [ 110.3959946, -7.75895959991 ] } },
{ "type": "Feature", "properties": { "fid": 21, "No": 21.0, "Name": "Grand Tjokro Yogyakarta", "ALAMAT": "Jl. Affandi No.37, Caturtunggal, Depok, Sleman, Yogyakarta (0274) 6429100", "GM_PEMILIK": "David Nugroho H", "KAMAR": 107.0, "KLASIFI": "IV", "TN_KERJA": 85.0, "Sumber": "Dinas Pariwisata Kabupaten Sleman Tahun 2020", "X": 110.3914991, "Y": -7.7669396000799997 }, "geometry": { "type": "Point", "coordinates": [ 110.3914991, -7.76693960008 ] } },
{ "type": "Feature", "properties": { "fid": 22, "No": 22.0, "Name": "Griya Persada Convention Hotel & Resort Kaliurang", "ALAMAT": "Jl. Boyong Kaliurang Barat Hargobinngun Pakem Telp. 4464401-4464402", "GM_PEMILIK": "Junus Sambodo", "KAMAR": 55.0, "KLASIFI": "IV", "TN_KERJA": 25.0, "Sumber": "Dinas Pariwisata Kabupaten Sleman Tahun 2020", "X": 110.4212048, "Y": -7.6067007001800002 }, "geometry": { "type": "Point", "coordinates": [ 110.4212048, -7.60670070018 ] } },
{ "type": "Feature", "properties": { "fid": 23, "No": 23.0, "Name": "Hotel Borobudur", "ALAMAT": "Jl. Magelang Km. 6,3, Sinduadi, Mlati, Sleman (0274) 868271", "GM_PEMILIK": "Agung Sasongko", "KAMAR": 44.0, "KLASIFI": "III", "TN_KERJA": 15.0, "Sumber": "Dinas Pariwisata Kabupaten Sleman Tahun 2020", "X": 110.362082058, "Y": -7.7483068747799999 }, "geometry": { "type": "Point", "coordinates": [ 110.362082058, -7.74830687478 ] } },
{ "type": "Feature", "properties": { "fid": 24, "No": 24.0, "Name": "Hotel Seturan", "ALAMAT": "Jl. Raya Seturan Condong Catur,l Depok Sleman Telp. (0274) 485629  Fax 486633", "GM_PEMILIK": "Hary Syahrodji", "KAMAR": 70.0, "KLASIFI": "I", "TN_KERJA": 43.0, "Sumber": "Dinas Pariwisata Kabupaten Sleman Tahun 2020", "X": 110.41053955700001, "Y": -7.7674655601399998 }, "geometry": { "type": "Point", "coordinates": [ 110.410539557, -7.76746556014 ] } },
{ "type": "Feature", "properties": { "fid": 25, "No": 25.0, "Name": "Hyatt Regency Yogyakarta", "ALAMAT": "Jl. Palagan Tentara Pelajar, Sedan, Sariharjo, Ngaglik 55581, Telp (0274) 869123 Fax 869588", "GM_PEMILIK": "Rizal Ruriko K", "KAMAR": 269.0, "KLASIFI": "V", "TN_KERJA": 205.0, "Sumber": "Dinas Pariwisata Kabupaten Sleman Tahun 2020", "X": 110.3734258, "Y": -7.7407850999500001 }, "geometry": { "type": "Point", "coordinates": [ 110.3734258, -7.74078509995 ] } },
{ "type": "Feature", "properties": { "fid": 26, "No": 26.0, "Name": "Indoluxe Hotel Yogyakarta", "ALAMAT": "Jl. Palagan Tentara Pelajar No. 106 Jongkang, Sariharjo, Ngaglik, Sleman (0274) 8722388", "GM_PEMILIK": "Anthony Sumitro Raharjo", "KAMAR": 200.0, "KLASIFI": "IV", "TN_KERJA": 108.0, "Sumber": "Dinas Pariwisata Kabupaten Sleman Tahun 2020", "X": 110.3724326, "Y": -7.7502298996899999 }, "geometry": { "type": "Point", "coordinates": [ 110.3724326, -7.75022989969 ] } },
{ "type": "Feature", "properties": { "fid": 27, "No": 27.0, "Name": "Innside By Melia Yogyakarta", "ALAMAT": "Jl. Ring Road Utara Maguwoharjo, Sleman", "GM_PEMILIK": "-", "KAMAR": 242.0, "KLASIFI": "IV", "TN_KERJA": 106.0, "Sumber": "Dinas Pariwisata Kabupaten Sleman Tahun 2020", "X": 110.431927, "Y": -7.7668604003899997 }, "geometry": { "type": "Point", "coordinates": [ 110.431927, -7.76686040039 ] } },
{ "type": "Feature", "properties": { "fid": 28, "No": 28.0, "Name": "Lafayette Boutique Hotel", "ALAMAT": "Jl. Pajang F No.409 (Ring Road Utara) Caturtunggal, Depok, Sleman", "GM_PEMILIK": "-", "KAMAR": 77.0, "KLASIFI": "IV", "TN_KERJA": 74.0, "Sumber": "Dinas Pariwisata Kabupaten Sleman Tahun 2020", "X": 110.387334, "Y": -7.75944929965 }, "geometry": { "type": "Point", "coordinates": [ 110.387334, -7.75944929965 ] } },
{ "type": "Feature", "properties": { "fid": 29, "No": 29.0, "Name": "LPP Convention Hotel", "ALAMAT": "Jl. Demangan Baru 8 Caturtunggal Depok Sleman telp. 0274-588380, Fax 0274 588908", "GM_PEMILIK": "Siddiq", "KAMAR": 50.0, "KLASIFI": "III", "TN_KERJA": 34.0, "Sumber": "Dinas Pariwisata Kabupaten Sleman Tahun 2020", "X": 110.3925825, "Y": -7.7796167997800003 }, "geometry": { "type": "Point", "coordinates": [ 110.3925825, -7.77961679978 ] } },
{ "type": "Feature", "properties": { "fid": 30, "No": 30.0, "Name": "Merapi Merbabu Hotels", "ALAMAT": "Seturan, Caturtunggal, Depok, Sleman (0274) 4332772", "GM_PEMILIK": "Djanti Nindiarto", "KAMAR": 170.0, "KLASIFI": "IV", "TN_KERJA": 91.0, "Sumber": "Dinas Pariwisata Kabupaten Sleman Tahun 2020", "X": 110.4102335, "Y": -7.7714578003400003 }, "geometry": { "type": "Point", "coordinates": [ 110.4102335, -7.77145780034 ] } },
{ "type": "Feature", "properties": { "fid": 31, "No": 31.0, "Name": "Paku Mas Hotel", "ALAMAT": "Jl Adisucipto 35 CT, Depok (0274) 489089", "GM_PEMILIK": "Mth Diani Purborini", "KAMAR": 57.0, "KLASIFI": "II", "TN_KERJA": 33.0, "Sumber": "Dinas Pariwisata Kabupaten Sleman Tahun 2020", "X": 110.40347, "Y": -7.7836870000499996 }, "geometry": { "type": "Point", "coordinates": [ 110.40347, -7.78368700005 ] } },
{ "type": "Feature", "properties": { "fid": 32, "No": 32.0, "Name": "Platinum Adisucipto Hotel & Conference Center", "ALAMAT": "Jl. Raya Solo No.28, Banguntapan, Maguwoharjo,  Depok, Sleman (0274) 2802228", "GM_PEMILIK": "-", "KAMAR": 103.0, "KLASIFI": "IV", "TN_KERJA": 88.0, "Sumber": "Dinas Pariwisata Kabupaten Sleman Tahun 2020", "X": 110.4372609, "Y": -7.7831004999899998 }, "geometry": { "type": "Point", "coordinates": [ 110.4372609, -7.78310049999 ] } },
{ "type": "Feature", "properties": { "fid": 33, "No": 33.0, "Name": "Prima SR Hotel & Convention", "ALAMAT": "Jl. Laksda Adisucipto Ambarrukmo, Caturtunggal, Depok, Sleman, Yogyakarta", "GM_PEMILIK": "-", "KAMAR": 82.0, "KLASIFI": "III", "TN_KERJA": 52.0, "Sumber": "Dinas Pariwisata Kabupaten Sleman Tahun 2020", "X": 110.3556763, "Y": -7.7105186997799997 }, "geometry": { "type": "Point", "coordinates": [ 110.3556763, -7.71051869978 ] } },
{ "type": "Feature", "properties": { "fid": 34, "No": 34.0, "Name": "Prime Plaza Hotel Jogjakarta", "ALAMAT": "Jl. Gejayan, Catur Tunggal, Depok, Sleman Telp.(0274) 586720, 584222 Fax. 584200", "GM_PEMILIK": "Yungke wibowo", "KAMAR": 190.0, "KLASIFI": "IV", "TN_KERJA": 103.0, "Sumber": "Dinas Pariwisata Kabupaten Sleman Tahun 2020", "X": 110.3898679, "Y": -7.7770243996600001 }, "geometry": { "type": "Point", "coordinates": [ 110.3898679, -7.77702439966 ] } },
{ "type": "Feature", "properties": { "fid": 35, "No": 35.0, "Name": "Puri Artha Hotel", "ALAMAT": "Jl. Cendrawasih No.36 Yogyakarta. Phone (0274) 563288, Fax. 562765", "GM_PEMILIK": "Ir Bagus Ardhi B", "KAMAR": 83.0, "KLASIFI": "III", "TN_KERJA": 73.0, "Sumber": "Dinas Pariwisata Kabupaten Sleman Tahun 2020", "X": 110.391127, "Y": -7.7799070002099997 }, "geometry": { "type": "Point", "coordinates": [ 110.391127, -7.77990700021 ] } },
{ "type": "Feature", "properties": { "fid": 36, "No": 36.0, "Name": "Quality Hotel Yogyakarta", "ALAMAT": "Jl. Laksda Adisucipto 48, Maguwoharjo, Depok 55282  Telp. (0274) 485005, 489009", "GM_PEMILIK": "Drs. Istijab DN", "KAMAR": 191.0, "KLASIFI": "IV", "TN_KERJA": 294.0, "Sumber": "Dinas Pariwisata Kabupaten Sleman Tahun 2020", "X": 110.42354196399999, "Y": -7.7825297028099998 }, "geometry": { "type": "Point", "coordinates": [ 110.423541964, -7.78252970281 ] } },
{ "type": "Feature", "properties": { "fid": 37, "No": 37.0, "Name": "Royal ambarukmo", "ALAMAT": "Jl. Laksda Adisucipto Ambarrukmo, Caturtunggal, Depok, Sleman, Yogyakarta(0274) 488488", "GM_PEMILIK": "Tjia Eddy Susanto", "KAMAR": 150.0, "KLASIFI": "V", "TN_KERJA": 125.0, "Sumber": "Dinas Pariwisata Kabupaten Sleman Tahun 2020", "X": 110.4030796, "Y": -7.7823384999199998 }, "geometry": { "type": "Point", "coordinates": [ 110.4030796, -7.78233849992 ] } },
{ "type": "Feature", "properties": { "fid": 38, "No": 38.0, "Name": "Sahid Raya Hotel & Convention Yogyakarta", "ALAMAT": "Jl. Babarsari, Yogyakarta Phone (0274) 488888                   Fax 487688, 487710", "GM_PEMILIK": "Purwanto SE", "KAMAR": 137.0, "KLASIFI": "IV", "TN_KERJA": 125.0, "Sumber": "Dinas Pariwisata Kabupaten Sleman Tahun 2020", "X": 110.4142935, "Y": -7.7800430001800001 }, "geometry": { "type": "Point", "coordinates": [ 110.4142935, -7.78004300018 ] } },
{ "type": "Feature", "properties": { "fid": 39, "No": 39.0, "Name": "Satoria Hotel Yogyakarta", "ALAMAT": "Jl. Laksda KM 8, Jl. Airport Adisucipto, Maguwoharjo, Sleman, Sleman (0274) 2802888", "GM_PEMILIK": "-", "KAMAR": 104.0, "KLASIFI": "IV", "TN_KERJA": 85.0, "Sumber": "Dinas Pariwisata Kabupaten Sleman Tahun 2020", "X": 110.422065, "Y": -7.78360640012 }, "geometry": { "type": "Point", "coordinates": [ 110.422065, -7.78360640012 ] } },
{ "type": "Feature", "properties": { "fid": 40, "No": 40.0, "Name": "Sejahtera Family", "ALAMAT": "Jl. Pringgondani 22 Demangan Baru, Yk. 55281 Phone (0274) 511355,519339, Fax. 519338", "GM_PEMILIK": "Danny Tanoto", "KAMAR": 130.0, "KLASIFI": "III", "TN_KERJA": 83.0, "Sumber": "Dinas Pariwisata Kabupaten Sleman Tahun 2020", "X": 110.39392626199999, "Y": -7.7737546246300004 }, "geometry": { "type": "Point", "coordinates": [ 110.393926262, -7.77375462463 ] } },
{ "type": "Feature", "properties": { "fid": 41, "No": 41.0, "Name": "Sheraton Mustika Yogyakarta Resort & Spa", "ALAMAT": "Jl. Laksda Adisucpto Km. 8,7, Maguwoharjo, Depok 55282 Telp. (0274) 488588, Fax. 485230", "GM_PEMILIK": "PT Mustika PH", "KAMAR": 246.0, "KLASIFI": "V", "TN_KERJA": 197.0, "Sumber": "Dinas Pariwisata Kabupaten Sleman Tahun 2020", "X": 110.42856704499999, "Y": -7.7793232083600001 }, "geometry": { "type": "Point", "coordinates": [ 110.428567045, -7.77932320836 ] } },
{ "type": "Feature", "properties": { "fid": 42, "No": 42.0, "Name": "Sriwedari Hotel and Cottage", "ALAMAT": "Jl. Laksda Adisucipto Km. 6 Janti Caturtunggal Tunggal Depok Sleman. Telp. (0274)488162\\488288", "GM_PEMILIK": "Haluanri usman", "KAMAR": 70.0, "KLASIFI": "III", "TN_KERJA": 100.0, "Sumber": "Dinas Pariwisata Kabupaten Sleman Tahun 2020", "X": 110.4048193, "Y": -7.7835859998899997 }, "geometry": { "type": "Point", "coordinates": [ 110.4048193, -7.78358599989 ] } },
{ "type": "Feature", "properties": { "fid": 43, "No": 43.0, "Name": "Student Park Hotel", "ALAMAT": "Jl. Raya Seturan No. 1 Seturan, Caturtunggal, Depok, Sleman. (0274) 487423", "GM_PEMILIK": "-", "KAMAR": 64.0, "KLASIFI": "III", "TN_KERJA": 40.0, "Sumber": "Dinas Pariwisata Kabupaten Sleman Tahun 2020", "X": 110.4097988, "Y": -7.7720413002699997 }, "geometry": { "type": "Point", "coordinates": [ 110.4097988, -7.77204130027 ] } },
{ "type": "Feature", "properties": { "fid": 44, "No": 44.0, "Name": "The Alana Yogyakarta Hotel", "ALAMAT": "Jl. Palagan Tentara Pelajar, Sedan, Sariharjo, Ngaglik 55581. (0274) 888800", "GM_PEMILIK": "-", "KAMAR": 263.0, "KLASIFI": "IV", "TN_KERJA": 120.0, "Sumber": "Dinas Pariwisata Kabupaten Sleman Tahun 2020", "X": 110.376522, "Y": -7.7383480001600002 }, "geometry": { "type": "Point", "coordinates": [ 110.376522, -7.73834800016 ] } },
{ "type": "Feature", "properties": { "fid": 45, "No": 45.0, "Name": "The Atrium Hotel and Resort Yogyakarta", "ALAMAT": "Jl. Kebon Agung No 20 Mraen, Kel. Sendangadi, Kec. Malti Kab. Sleman (0275) 2880555", "GM_PEMILIK": "-", "KAMAR": 105.0, "KLASIFI": "IV", "TN_KERJA": 57.0, "Sumber": "Dinas Pariwisata Kabupaten Sleman Tahun 2020", "X": 110.3598573, "Y": -7.7475520001199998 }, "geometry": { "type": "Point", "coordinates": [ 110.3598573, -7.74755200012 ] } },
{ "type": "Feature", "properties": { "fid": 46, "No": 46.0, "Name": "The Jayakarta Yogyakarta Hotel & Spa", "ALAMAT": "Jl. Laksda Adisucpto Km.8 PO BOX 90 Yogyakarta Phone(0274) 488418 Fax. 489837", "GM_PEMILIK": "I Ketut Budha", "KAMAR": 129.0, "KLASIFI": "IV", "TN_KERJA": 120.0, "Sumber": "Dinas Pariwisata Kabupaten Sleman Tahun 2020", "X": 110.4196292, "Y": -7.7835505998799999 }, "geometry": { "type": "Point", "coordinates": [ 110.4196292, -7.78355059988 ] } },
{ "type": "Feature", "properties": { "fid": 47, "No": 47.0, "Name": "The Rich Jogja Hotel", "ALAMAT": "Jl. Magelang Km 6.8 No 18  Yogyakarta", "GM_PEMILIK": "Ir. Bambang S", "KAMAR": 108.0, "KLASIFI": "IV", "TN_KERJA": 103.0, "Sumber": "Dinas Pariwisata Kabupaten Sleman Tahun 2020", "X": 110.36108562699999, "Y": -7.7525960163100001 }, "geometry": { "type": "Point", "coordinates": [ 110.361085627, -7.75259601631 ] } },
{ "type": "Feature", "properties": { "fid": 48, "No": 48.0, "Name": "The Victoria Hotel Yogya", "ALAMAT": "Jl. Laksda Adisucipto KM. 5, Caturtunggal, Depok, Sleman (0274) 3041588", "GM_PEMILIK": "Alexius Limyarto", "KAMAR": 67.0, "KLASIFI": "III", "TN_KERJA": 48.0, "Sumber": "Dinas Pariwisata Kabupaten Sleman Tahun 2020", "X": 110.4037887, "Y": -7.7796238999199998 }, "geometry": { "type": "Point", "coordinates": [ 110.4037887, -7.77962389992 ] } },
{ "type": "Feature", "properties": { "fid": 49, "No": 49.0, "Name": "The Westlake Resort Jogja", "ALAMAT": "Jalan Ringroad Barat Bedog, Baturan, Trihanggo, Gamping, Sleman Regency, Special Region of Yogyakarta 55291 (0811256622)", "GM_PEMILIK": "C. Ika Pramestiningrum", "KAMAR": 48.0, "KLASIFI": "IV", "TN_KERJA": 25.0, "Sumber": "Dinas Pariwisata Kabupaten Sleman Tahun 2020", "X": 110.33790517600001, "Y": -7.74727589986 }, "geometry": { "type": "Point", "coordinates": [ 110.337905176, -7.74727589986 ] } },
{ "type": "Feature", "properties": { "fid": 50, "No": 50.0, "Name": "University Hotel", "ALAMAT": "Jl. Anggrek, Jl. Raya Solo-Yogyakarta Sambilegi Kidul No.137d, Sambilegi Kidul, Maguwoharjo", "GM_PEMILIK": "-", "KAMAR": 80.0, "KLASIFI": "III", "TN_KERJA": 57.0, "Sumber": "Dinas Pariwisata Kabupaten Sleman Tahun 2020", "X": 110.4352146, "Y": -7.7811346998099999 }, "geometry": { "type": "Point", "coordinates": [ 110.4352146, -7.78113469981 ] } }
]
}
